{
  "drivers": [
    {
      "id": 1,
      "name": "علی محمدی",
      "phone": "09121234567",
      "car": {
        "model": "پژو 206",
        "plate": "الف ۱۲ ایران ۳۴۵",
        "color": "سفید",
        "year": 1400
      },
      "rating": 4.8,
      "totalTrips": 234,
      "status": "available",
      "location": {
        "lat": 27.1865,
        "lng": 56.2768,
        "address": "میدان آزادی"
      },
      "joinedDate": "2024-01-15"
    },
    {
      "id": 2,
      "name": "حسن رضایی",
      "phone": "09131234567",
      "car": {
        "model": "سمند",
        "plate": "ب ۵۶ ایران ۷۸۹",
        "color": "نقره‌ای",
        "year": 1401
      },
      "rating": 4.9,
      "totalTrips": 456,
      "status": "busy",
      "location": {
        "lat": 27.19,
        "lng": 56.28,
        "address": "خیابان امام خمینی"
      },
      "joinedDate": "2023-06-20"
    },
    {
      "id": 3,
      "name": "محمد احمدی",
      "phone": "09141234567",
      "car": {
        "model": "دنا",
        "plate": "ج ۹۱ ایران ۱۲۳",
        "color": "مشکی",
        "year": 1402
      },
      "rating": 4.7,
      "totalTrips": 189,
      "status": "available",
      "location": {
        "lat": 27.185,
        "lng": 56.275,
        "address": "بلوار امام خمینی"
      },
      "joinedDate": "2024-03-10"
    }
  ],
  "passengers": [
    {
      "id": 1,
      "name": "فاطمه کریمی",
      "phone": "09151234567",
      "totalTrips": 45,
      "rating": 4.9,
      "joinedDate": "2024-02-10"
    },
    {
      "id": 2,
      "name": "مریم نوری",
      "phone": "09161234567",
      "totalTrips": 32,
      "rating": 4.8,
      "joinedDate": "2024-03-15"
    },
    {
      "id": 3,
      "name": "زهرا حسینی",
      "phone": "09171234567",
      "totalTrips": 67,
      "rating": 5,
      "joinedDate": "2023-12-01"
    }
  ],
  "rides": [
    {
      "id": 1,
      "driverId": 2,
      "passengerId": 1,
      "origin": {
        "address": "میدان آزادی",
        "lat": 27.1865,
        "lng": 56.2768
      },
      "destination": {
        "address": "بندر عباس",
        "lat": 27.19,
        "lng": 56.28
      },
      "status": "active",
      "price": 150000,
      "distance": 5.2,
      "duration": 15,
      "startTime": "2025-10-15T06:36:46.582Z"
    }
  ],
  "users": [],
  "config": {
    "baseFare": 15000,
    "perKmRate": 8000,
    "perMinuteRate": 1500,
    "minimumFare": 20000,
    "maxSearchRadius": 5,
    "cancellationFee": 10000
  }
}